[{"_id":"5a12c3c4562717464945505a","groupBy":"tipsymusicpub","dayOfWeek":"Wednesday","sortOrder":1100,"title":"Big Tez, Shannon Hoover, Aaron Bowen, & Charles Hedgepath","description":null,"url":"https://facebook.com/132528224186320","time":"21:00:00","date":"2017-11-21","datetime":"2017-11-21T21:00:00-0500","venue":{"name":"Tipsy Music Pub","url":"https://facebook.com/108987659815117","latitude":34.84701,"longitude":-82.42862,"country":"United States","city":"Greenville","state":"SC","street":"1237 Pendleton St.","zip":"29611"},"updated":"2017-11-21T12:00:04.825Z"},{"_id":"5a0bd7e2562717464945500f","groupBy":"groundzero","dayOfWeek":"Tuesday","sortOrder":4000,"title":"Traitors , Sabella , Heft , AWOLTues Nov 21st","description":"Traitors returns to Spartanburg with Sabella , Heft , A World Of Lies  and more Tuesday November 21st at GroundZero $10 advance\n\n#Traitors #Sabella #Heft #AWorldOfLies\n\nhttps://www.facebook.com/Traitorsfl/\n\nhttps://www.facebook.com/sabellaofficial/\n\nhttps://www.facebook.com/heftnc/\n\nhttps://www.facebook.com/aworldofliesofficial/","url":"https://facebook.com/164907090753548","time":"18:00:00","date":"2017-11-21","datetime":"2017-11-21T18:00:00-0500","venue":{"name":"GroundZero","url":"https://facebook.com/211975785235","latitude":34.97026,"longitude":-81.9642,"country":"United States","city":"Spartanburg","state":"SC","street":"3052 Howard St.","zip":"29303"},"updated":"2017-11-21T12:00:04.767Z"}]